,Name,Country,Longitude,Latitude,Max Temp,Humidity,Cloudiness,Wind Speed,Date
0,Emerald,AU,148.1667,-23.5333,67.93,72.0,4.0,7.2,1630188472.0
1,Busselton,AU,115.3333,-33.65,54.09,84.0,48.0,13.0,1630188472.0
2,Tiarei,PF,-149.3333,-17.5333,80.62,81.0,24.0,11.59,1630188473.0
4,Thompson,CA,-97.8558,55.7435,69.73,46.0,100.0,5.88,1630188259.0
5,Bokoro,TD,17.0568,12.3807,81.81,68.0,41.0,7.52,1630188473.0
6,Saint-Philippe,RE,55.7679,-21.3585,69.39,93.0,100.0,16.44,1630188473.0
7,Balsas,BR,-46.0356,-7.5325,90.28,28.0,31.0,5.3,1630188474.0
8,Lebu,CL,-73.65,-37.6167,53.08,96.0,100.0,12.01,1630188474.0
9,Dunedin,NZ,170.5036,-45.8742,48.79,83.0,96.0,3.0,1630188474.0
10,Yellowknife,CA,-114.3525,62.456,66.94,53.0,19.0,9.82,1630188474.0
11,Jamestown,US,-79.2353,42.097,85.84,69.0,1.0,5.99,1630188419.0
12,Masallātah,LY,14.0,32.6167,76.84,62.0,0.0,6.87,1630188475.0
13,Bad Hersfeld,DE,9.7,50.8667,57.94,97.0,100.0,2.1,1630188475.0
14,Rikitea,PF,-134.9692,-23.1203,73.76,71.0,0.0,20.6,1630188475.0
15,George Town,MY,100.3354,5.4112,80.53,87.0,20.0,3.44,1630188476.0
16,Tyup,KG,78.3648,42.7276,52.97,81.0,92.0,1.03,1630188476.0
17,Fairbanks,US,-147.7164,64.8378,48.16,76.0,90.0,0.0,1630188302.0
18,Airai,TL,125.4092,-8.9266,56.05,76.0,13.0,3.4,1630188476.0
19,Methóni,GR,21.7049,36.8197,73.26,73.0,0.0,13.09,1630188477.0
20,Hilo,US,-155.09,19.7297,84.27,65.0,40.0,10.36,1630188324.0
21,Lagoa,PT,-27.9833,39.05,71.13,86.0,4.0,15.55,1630188423.0
22,San Cristobal,VE,-72.225,7.7669,75.38,63.0,53.0,5.19,1630188201.0
24,Guerrero Negro,MX,-114.0611,27.9769,83.57,55.0,28.0,14.52,1630188212.0
25,Yining,CN,114.5636,29.0361,73.17,96.0,100.0,1.3,1630188477.0
26,Muros,ES,-9.0603,42.7762,68.5,92.0,63.0,2.64,1630188477.0
27,Fortuna,US,-124.1573,40.5982,66.33,70.0,1.0,13.8,1630188478.0
28,Jiménez,MX,-105.4,28.3333,92.14,23.0,34.0,8.97,1630188478.0
30,Saldanha,ZA,17.9442,-33.0117,47.57,68.0,14.0,4.32,1630188478.0
31,São Filipe,CV,-24.4956,14.8961,76.73,80.0,100.0,1.99,1630188479.0
32,Sitka,US,-135.33,57.0531,55.29,71.0,90.0,6.91,1630188479.0
33,Khatanga,RU,102.5,71.9667,34.5,98.0,100.0,12.21,1630188479.0
34,Rincon,US,-81.2354,32.296,88.86,79.0,75.0,12.66,1630188218.0
35,Esperance,AU,121.9,-33.8667,53.74,75.0,100.0,13.82,1630188480.0
36,Ushuaia,AR,-68.3,-54.8,42.46,65.0,20.0,6.91,1630188480.0
37,Hermanus,ZA,19.2345,-34.4187,45.9,68.0,67.0,5.28,1630188480.0
38,Mariinsk,RU,87.7472,56.2139,53.42,96.0,35.0,3.89,1630188480.0
39,Cape Town,ZA,18.4232,-33.9258,46.11,58.0,58.0,4.83,1630188190.0
40,Ketchikan,US,-131.6461,55.3422,61.27,72.0,75.0,6.91,1630188481.0
41,East London,ZA,27.9116,-33.0153,51.94,69.0,51.0,13.96,1630188481.0
42,Praia,CV,-23.5087,14.9215,77.54,83.0,20.0,4.61,1630188481.0
43,Tiksi,RU,128.8694,71.6872,35.71,98.0,100.0,19.26,1630188482.0
44,San Patricio,US,-97.5169,28.017,93.61,51.0,81.0,13.24,1630188482.0
45,Punta Arenas,CL,-70.9167,-53.15,39.31,81.0,75.0,12.66,1630188236.0
46,Sur,OM,59.5289,22.5667,82.04,68.0,4.0,9.98,1630188482.0
47,Lompoc,US,-120.4579,34.6391,98.74,65.0,1.0,14.97,1630188483.0
49,Jiuquan,CN,98.5174,39.7432,60.94,33.0,97.0,4.43,1630188483.0
50,Butaritari,KI,172.7902,3.0707,82.67,74.0,34.0,10.51,1630188483.0
52,Swellendam,ZA,20.4417,-34.0226,43.18,77.0,52.0,4.29,1630188483.0
53,Qaanaaq,GL,-69.3632,77.484,36.07,98.0,100.0,5.41,1630188484.0
54,Port Elizabeth,ZA,25.5701,-33.918,48.09,72.0,53.0,7.11,1630188484.0
55,Asău,RO,26.4,46.4333,58.95,94.0,100.0,0.94,1630188484.0
56,Kabompo,ZM,24.2008,-13.5927,70.77,22.0,73.0,5.59,1630188485.0
57,Tasiilaq,GL,-37.6368,65.6145,46.56,99.0,100.0,4.7,1630188485.0
58,Khandyga,RU,135.6,62.6667,43.25,78.0,35.0,1.16,1630188485.0
59,São João da Barra,BR,-41.0511,-21.6403,71.69,86.0,17.0,8.77,1630188485.0
60,Vidim,RU,103.1106,56.4088,50.88,73.0,35.0,2.77,1630188486.0
61,Forio,IT,13.8646,40.7342,73.69,81.0,0.0,1.25,1630188486.0
62,Mar del Plata,AR,-57.5575,-38.0023,54.91,73.0,53.0,8.57,1630188486.0
63,Vaini,TO,-175.2,-21.2,73.56,73.0,75.0,10.36,1630188487.0
64,Port Hedland,AU,118.5667,-20.3167,62.65,88.0,90.0,0.0,1630188487.0
65,San Quintín,MX,-115.95,30.4833,76.48,70.0,16.0,12.39,1630188487.0
66,Cidreira,BR,-50.2056,-30.1811,60.64,77.0,0.0,18.92,1630188487.0
67,Pangkalanbuun,ID,111.6167,-2.6833,73.53,99.0,81.0,2.44,1630188488.0
68,Fort Nelson,CA,-122.7002,58.8053,65.34,62.0,100.0,3.44,1630188197.0
69,Djibouti,DJ,42.5,11.5,94.42,41.0,95.0,3.56,1630188488.0
70,Águas Belas,BR,-37.1231,-9.1114,71.31,70.0,80.0,11.21,1630188488.0
71,Katsuura,JP,140.3,35.1333,82.51,87.0,8.0,12.19,1630188489.0
72,Bam,IR,58.357,29.106,78.48,18.0,0.0,10.31,1630188489.0
73,Sawākin,SD,37.3321,19.1059,90.23,60.0,18.0,2.66,1630188489.0
74,Adrar,MR,-10.0711,20.5022,97.81,21.0,15.0,3.96,1630188489.0
75,Hilton Head,US,-80.7526,32.2163,87.85,73.0,40.0,0.0,1630188276.0
76,Nikolskoye,RU,30.7861,59.7035,58.89,88.0,46.0,5.03,1630188490.0
80,Chapais,CA,-74.8492,49.7834,58.6,57.0,100.0,3.85,1630188490.0
81,Salinópolis,BR,-47.3561,-0.6136,80.69,82.0,12.0,15.41,1630188491.0
82,Yar-Sale,RU,70.8333,66.8333,44.62,86.0,100.0,16.53,1630188491.0
83,Mahébourg,MU,57.7,-20.4081,71.26,92.0,100.0,17.27,1630188491.0
84,Shrewsbury,GB,-2.7521,52.7101,60.08,90.0,57.0,4.07,1630188208.0
85,Ilulissat,GL,-51.1,69.2167,39.22,75.0,66.0,5.75,1630188491.0
86,Geraldton,AU,114.6,-28.7667,46.81,93.0,98.0,8.05,1630188492.0
87,Donji Vakuf,BA,17.4,44.1436,52.47,99.0,100.0,3.51,1630188492.0
88,Bluff,NZ,168.3333,-46.6,45.81,71.0,99.0,6.55,1630188492.0
89,Bariloche,AR,-71.3082,-41.1456,38.77,99.0,100.0,5.08,1630188493.0
90,Sambava,MG,50.1667,-14.2667,65.59,87.0,9.0,6.42,1630188493.0
91,Tuatapere,NZ,167.6833,-46.1333,45.82,82.0,100.0,3.78,1630188493.0
92,Uvira,CD,29.1458,-3.4067,76.89,58.0,91.0,2.33,1630188493.0
93,Gwadar,PK,62.3254,25.1216,78.75,79.0,89.0,5.79,1630188494.0
94,Cherskiy,RU,161.3,68.75,40.51,58.0,100.0,7.25,1630188494.0
95,Te Anau,NZ,167.7167,-45.4167,44.8,96.0,100.0,2.24,1630188435.0
96,Kismayo,SO,42.5454,-0.3582,75.69,79.0,23.0,16.26,1630188494.0
97,Skellefteå,SE,20.9528,64.7507,45.0,69.0,2.0,4.61,1630188495.0
98,Hobart,AU,147.3294,-42.8794,46.11,94.0,75.0,4.0,1630188495.0
99,Narāyangarh,IN,77.1333,30.4833,74.5,91.0,0.0,4.68,1630188495.0
100,Itarema,BR,-39.9167,-2.9248,78.39,76.0,63.0,16.28,1630188495.0
101,Acapulco de Juárez,MX,-99.8901,16.8634,78.62,89.0,90.0,6.91,1630188342.0
103,Ponta do Sol,PT,-17.1,32.6667,74.03,69.0,5.0,5.28,1630188496.0
104,Pachino,IT,15.0907,36.7186,77.04,66.0,0.0,11.9,1630188496.0
105,Albany,US,-73.9662,42.6001,72.81,66.0,68.0,8.86,1630188496.0
106,Severo-Kuril'sk,RU,156.125,50.6789,54.46,96.0,100.0,6.8,1630188497.0
107,Luleå,SE,22.1547,65.5842,48.27,93.0,0.0,2.3,1630188497.0
109,Port Alfred,ZA,26.891,-33.5906,49.78,76.0,59.0,10.45,1630188497.0
111,Guarapari,BR,-40.4975,-20.6667,75.09,87.0,31.0,6.82,1630188498.0
112,Talnakh,RU,88.3972,69.4865,38.21,94.0,100.0,7.74,1630188498.0
113,Chokurdakh,RU,147.9167,70.6333,35.65,96.0,100.0,6.98,1630188498.0
114,Kapaa,US,-159.319,22.0752,84.52,67.0,20.0,3.0,1630188499.0
116,Srednekolymsk,RU,153.6833,67.45,41.14,54.0,96.0,6.8,1630188499.0
117,Ivanava,BY,25.5365,52.1451,51.57,96.0,72.0,6.11,1630188499.0
118,Vila Franca do Campo,PT,-25.4333,37.7167,73.81,86.0,42.0,12.86,1630188500.0
119,Necochea,AR,-58.7368,-38.5473,54.03,61.0,95.0,7.76,1630188500.0
120,Mangai,CD,19.5333,-4.05,78.08,62.0,88.0,1.7,1630188500.0
121,Carnarvon,AU,113.6333,-24.8667,53.67,50.0,62.0,8.05,1630188501.0
122,Cacheu,GW,-16.1658,12.2706,78.19,83.0,100.0,4.32,1630188501.0
123,Tuktoyaktuk,CA,-133.0374,69.4541,49.23,76.0,78.0,2.82,1630188501.0
124,Ferrol,ES,-8.2369,43.4832,68.25,89.0,100.0,8.97,1630188501.0
125,Alekseyevka,RU,38.6903,50.6309,72.25,52.0,42.0,3.74,1630188502.0
126,Jiaojiang,CN,121.4428,28.6803,76.71,94.0,11.0,3.49,1630188502.0
127,Port Macquarie,AU,152.9167,-31.4333,48.16,53.0,0.0,4.59,1630188502.0
128,Puerto Ayora,EC,-90.3518,-0.7393,73.36,88.0,97.0,5.99,1630188503.0
129,Pangnirtung,CA,-65.7125,66.1451,42.73,67.0,51.0,3.06,1630188503.0
130,Americus,US,-84.2327,32.0724,83.34,89.0,91.0,0.0,1630188504.0
131,New Norfolk,AU,147.0587,-42.7826,45.75,85.0,100.0,2.44,1630188504.0
133,Kalangala,UG,32.225,-0.3089,69.15,65.0,9.0,1.14,1630188505.0
134,Alofi,NU,-169.9187,-19.0595,73.47,57.0,86.0,17.07,1630188506.0
135,Mount Gambier,AU,140.7667,-37.8333,44.47,97.0,95.0,4.9,1630188506.0
136,Obihiro,JP,143.2044,42.9172,67.57,79.0,41.0,2.89,1630188506.0
137,Laguna,US,-121.4238,38.421,105.21,20.0,90.0,1.99,1630188297.0
138,Leeton,AU,146.4,-34.5667,53.51,78.0,100.0,13.4,1630188507.0
139,Ulagan,RU,87.9563,50.6321,44.98,82.0,20.0,1.05,1630188507.0
140,Mataura,NZ,168.8643,-46.1927,45.48,89.0,100.0,1.83,1630188507.0
141,Yulara,AU,130.9889,-25.2406,42.64,39.0,0.0,5.75,1630188508.0
142,Manassas,US,-77.4753,38.751,90.01,68.0,1.0,10.36,1630188289.0
143,Belturbet,IE,-7.45,54.1,58.62,97.0,75.0,3.51,1630188508.0
144,Solenzo,BF,-4.0833,12.1833,73.08,93.0,100.0,6.69,1630188509.0
145,Lahaina,US,-156.6825,20.8783,86.0,65.0,2.0,6.02,1630188509.0
146,Pisco,PE,-76.2167,-13.7,64.45,72.0,0.0,6.91,1630188509.0
147,Coihueco,CL,-71.8333,-36.6167,61.54,67.0,75.0,6.91,1630188259.0
148,Patnāgarh,IN,83.15,20.7167,77.07,90.0,100.0,1.52,1630188497.0
149,Provideniya,RU,-173.3,64.3833,48.97,96.0,100.0,1.48,1630188510.0
150,Pevek,RU,170.3133,69.7008,32.97,76.0,59.0,8.25,1630188510.0
151,Atuona,PF,-139.0333,-9.8,77.76,79.0,27.0,24.65,1630188510.0
152,Hithadhoo,MV,73.0833,-0.6,82.02,73.0,26.0,12.66,1630188511.0
153,São Paulo de Olivença,BR,-68.8725,-3.3783,83.89,67.0,75.0,1.74,1630188511.0
154,Oriximiná,BR,-55.8661,-1.7656,75.76,90.0,50.0,4.79,1630188511.0
155,Constantine,DZ,6.6147,36.365,77.72,45.0,80.0,3.0,1630188512.0
156,Vao,NC,167.4833,-22.6667,70.3,77.0,5.0,2.1,1630188512.0
157,Oddur,SO,43.8894,4.1213,70.72,63.0,11.0,18.5,1630188512.0
158,Stanislav,UA,32.1478,46.5691,74.5,64.0,80.0,7.45,1630188513.0
159,Haines Junction,CA,-137.5108,60.7522,43.81,96.0,100.0,4.45,1630188513.0
160,Daro,GN,-9.569,8.5185,68.88,99.0,99.0,1.54,1630188513.0
161,Saint Paul Harbor,US,-152.4072,57.79,62.11,29.0,1.0,20.71,1630188513.0
162,Saskylakh,RU,114.0833,71.9167,35.46,98.0,100.0,11.18,1630188514.0
163,Kwang Binh,VN,106.6,17.4833,77.4,87.0,55.0,3.09,1630188514.0
164,Bambous Virieux,MU,57.7575,-20.3428,71.22,92.0,100.0,15.88,1630188514.0
165,Nushki,PK,66.0215,29.5542,81.46,27.0,17.0,5.08,1630188514.0
166,Alice Springs,AU,133.8833,-23.7,47.75,49.0,2.0,3.44,1630188515.0
167,Fayaoué,NC,166.5333,-20.65,73.44,73.0,0.0,8.23,1630188374.0
168,Arraial do Cabo,BR,-42.0278,-22.9661,70.45,85.0,57.0,6.04,1630188515.0
169,Sulangan,PH,123.7228,11.1373,82.06,74.0,76.0,5.99,1630188515.0
170,Torbay,CA,-52.7314,47.6666,55.58,91.0,100.0,1.99,1630188516.0
171,Half Moon Bay,US,-122.4286,37.4636,106.54,33.0,1.0,10.36,1630188516.0
173,Santa Cruz de la Sierra,BO,-63.1667,-17.8,72.86,68.0,75.0,2.3,1630188510.0
174,Dalvik,IS,-18.5286,65.9702,52.74,71.0,88.0,12.97,1630188516.0
175,Kalaīkunda,IN,87.25,22.35,79.02,94.0,96.0,5.64,1630188517.0
176,Tahoua,NE,5.2692,14.8888,84.16,54.0,86.0,17.72,1630188517.0
178,Progreso,MX,-89.6667,21.2833,93.31,66.0,23.0,11.18,1630188517.0
180,Shelburne,CA,-80.2041,44.0787,85.75,43.0,90.0,6.38,1630188518.0
181,Tiznit Province,MA,-9.5,29.5833,74.91,37.0,0.0,3.58,1630188518.0
183,Dikson,RU,80.5464,73.5069,39.09,78.0,100.0,21.72,1630188518.0
184,Xining,CN,101.7667,36.6167,48.43,85.0,12.0,2.59,1630188519.0
185,Lerwick,GB,-1.1494,60.1545,53.6,86.0,28.0,4.25,1630188519.0
186,Mossamedes,AO,12.1522,-15.1961,64.29,89.0,12.0,2.39,1630188519.0
187,Cam Ranh,VN,109.1591,11.9214,76.96,83.0,40.0,3.44,1630188520.0
188,Beyneu,KZ,55.2,45.3167,78.82,44.0,7.0,8.19,1630188520.0
189,Umm Kaddadah,SD,26.6876,13.6017,91.29,33.0,55.0,9.46,1630188521.0
190,Puerto del Rosario,ES,-13.8627,28.5004,73.15,88.0,0.0,12.66,1630188521.0
191,Bengkulu,ID,102.2655,-3.8004,74.48,88.0,100.0,3.87,1630188521.0
192,Pemba,MZ,40.5178,-12.974,74.64,73.0,0.0,8.41,1630188522.0
193,Mahanoro,MG,48.8,-19.9,66.78,93.0,88.0,8.52,1630188522.0
194,Jhajjar,IN,76.6565,28.6063,80.71,79.0,89.0,7.43,1630188522.0
195,Krasnyy Yar,RU,48.3456,46.5331,75.13,40.0,0.0,8.61,1630188522.0
196,Northam,GB,-4.2167,51.0333,59.67,93.0,4.0,2.59,1630188523.0
197,Basco,PH,121.9702,20.4487,84.58,76.0,12.0,15.68,1630188523.0
198,Ilirska Bistrica,SI,14.2408,45.5697,60.69,92.0,12.0,4.74,1630188523.0
199,Buin,CL,-70.75,-33.7333,71.92,61.0,100.0,2.15,1630188523.0
200,Chui,UY,-53.4616,-33.6971,54.01,80.0,100.0,8.5,1630188524.0
201,Payo,ID,103.6372,-3.7508,72.32,97.0,99.0,3.06,1630188524.0
204,Isangel,VU,169.2667,-19.55,76.08,64.0,6.0,7.67,1630188525.0
205,Port Lincoln,AU,135.8667,-34.7333,52.3,71.0,60.0,10.83,1630188525.0
206,Hofn,IS,-15.2082,64.2539,54.52,71.0,100.0,9.13,1630188525.0
207,Mezhdurechensk,RU,88.0603,53.6942,53.83,93.0,71.0,3.2,1630188526.0
208,Amalāpuram,IN,82.0167,16.5833,77.99,85.0,100.0,5.82,1630188526.0
209,Korla,CN,86.1469,41.7597,72.81,33.0,70.0,6.76,1630188526.0
210,Mosquera,CO,-74.2302,4.7059,64.49,52.0,40.0,9.22,1630188377.0
211,Kieta,PG,155.6333,-6.2167,82.74,74.0,89.0,3.96,1630188527.0
212,Souillac,MU,57.5167,-20.5167,71.37,93.0,100.0,15.73,1630188527.0
213,Castro,BR,-50.0119,-24.7911,55.27,98.0,100.0,9.8,1630188527.0
214,Belmonte,BR,-38.8828,-15.8631,73.9,85.0,6.0,7.38,1630188528.0
215,Grand Gaube,MU,57.6608,-20.0064,71.38,87.0,100.0,11.01,1630188528.0
216,Bethel,US,-73.414,41.3712,71.96,78.0,90.0,5.75,1630188529.0
219,Lavrentiya,RU,-171.0,65.5833,42.89,89.0,100.0,8.28,1630188530.0
220,Bredasdorp,ZA,20.0403,-34.5322,37.27,76.0,75.0,4.56,1630188530.0
221,Urucará,BR,-57.76,-2.5364,79.54,75.0,61.0,3.11,1630188531.0
222,Helsinki,FI,24.9355,60.1695,60.04,81.0,0.0,5.99,1630188531.0
223,Altoona,US,-78.3947,40.5187,79.81,85.0,60.0,3.11,1630188532.0
224,Vanimo,PG,141.3028,-2.6741,78.85,87.0,66.0,6.49,1630188532.0
225,Araouane,ML,-3.5265,18.9048,101.01,20.0,1.0,5.17,1630188532.0
226,Avarua,CK,-159.775,-21.2078,73.45,56.0,40.0,8.05,1630188533.0
227,São Geraldo do Araguaia,BR,-48.555,-6.4006,89.28,35.0,79.0,3.74,1630188533.0
228,Ribeira Grande,PT,-28.7,38.5167,72.73,87.0,13.0,15.01,1630188533.0
229,Belaya Gora,RU,146.4167,68.5333,43.47,83.0,100.0,4.29,1630188534.0
230,Phan Thiet,VN,108.1,10.9333,75.38,89.0,93.0,3.69,1630188534.0
231,Puerto Carreño,CO,-67.4859,6.189,75.63,93.0,100.0,4.85,1630188534.0
232,La Providencia,MX,-111.5833,28.7167,99.05,41.0,77.0,1.99,1630188535.0
233,Altus,US,-99.334,34.6381,93.76,38.0,40.0,1.99,1630188535.0
234,Hong Kong,HK,114.1577,22.2855,84.18,79.0,96.0,14.09,1630188536.0
235,Vangaindrano,MG,47.6,-23.35,63.9,94.0,47.0,3.47,1630188536.0
236,Zhicheng,CN,111.5047,30.2956,71.51,97.0,89.0,1.45,1630188536.0
238,Itacarambi,BR,-44.0919,-15.1022,78.57,44.0,57.0,8.39,1630188537.0
239,Coyhaique,CL,-72.0662,-45.5752,46.35,71.0,75.0,3.44,1630188537.0
240,Balikpapan,ID,116.8289,-1.2675,72.46,97.0,100.0,3.78,1630188538.0
241,Mogadishu,SO,45.3438,2.0371,76.3,79.0,6.0,19.84,1630188371.0
242,Port Blair,IN,92.75,11.6667,79.25,85.0,100.0,9.62,1630188538.0
243,Hasaki,JP,140.8333,35.7333,81.0,82.0,0.0,12.53,1630188539.0
244,Palmas,BR,-48.3603,-10.2128,89.47,37.0,0.0,2.3,1630188501.0
245,Okha,RU,142.9478,53.5739,55.65,97.0,100.0,6.51,1630188539.0
246,Sioux Lookout,CA,-91.917,50.1001,68.07,88.0,75.0,3.44,1630188258.0
247,Saint-Pierre,RE,55.4781,-21.3393,69.48,90.0,90.0,4.61,1630188539.0
248,Karatau,KZ,70.4667,43.1667,73.81,26.0,17.0,7.2,1630188540.0
249,Barrow,US,-156.7887,71.2906,32.02,74.0,90.0,14.97,1630188302.0
250,Port-de-Bouc,FR,4.9833,43.4,70.02,50.0,0.0,24.16,1630188540.0
251,Pudozh,RU,36.5345,61.8099,47.1,81.0,6.0,3.18,1630188540.0
253,Gillette,US,-105.5022,44.2911,64.24,53.0,40.0,7.0,1630188319.0
254,Coquimbo,CL,-71.3436,-29.9533,58.73,77.0,0.0,9.22,1630188541.0
255,Kruisfontein,ZA,24.7314,-34.0033,44.89,73.0,28.0,7.78,1630188541.0
256,Kisangani,CD,25.2,0.5167,71.17,92.0,57.0,2.71,1630188541.0
257,Semnan,IR,53.3971,35.5729,74.35,38.0,0.0,3.06,1630188542.0
258,Polyarny,RU,33.4478,69.1989,39.67,83.0,31.0,6.6,1630188542.0
259,Doka,SD,35.7667,13.5167,67.32,87.0,100.0,9.75,1630188542.0
260,Vestmanna,FO,-7.1664,62.1564,50.92,100.0,90.0,2.3,1630188543.0
261,Ancud,CL,-73.8203,-41.8697,51.33,96.0,100.0,12.86,1630188543.0
262,Panama City,PA,-79.5197,8.9936,85.17,85.0,40.0,3.44,1630188440.0
263,Kastamonu Province,TR,33.6667,41.5,71.62,67.0,1.0,5.12,1630188544.0
266,Clyde River,CA,-68.5914,70.4692,38.03,78.0,99.0,3.58,1630188544.0
267,Palmer,US,-72.3287,42.1584,70.5,68.0,90.0,6.91,1630188544.0
268,Smithers,CA,-127.1743,54.7804,61.57,73.0,94.0,4.25,1630188545.0
269,Uyskoye,RU,60.0047,54.3775,42.4,79.0,9.0,7.18,1630188545.0
270,Priargunsk,RU,119.1012,50.3691,47.89,85.0,7.0,4.29,1630188545.0
271,Tual,ID,132.75,-5.6667,80.37,82.0,58.0,16.64,1630188546.0
272,Laas,IT,10.7002,46.6166,53.02,95.0,83.0,6.4,1630188546.0
275,Iralaya,HN,-83.2333,15.0,82.98,78.0,100.0,11.48,1630188547.0
276,Winnemucca,US,-117.7357,40.973,87.85,8.0,1.0,3.44,1630188547.0
277,Ostrovnoy,RU,39.5131,68.0531,45.03,78.0,100.0,18.34,1630188547.0
278,Houma,US,-90.7195,29.5958,87.8,79.0,75.0,16.11,1630188548.0
279,Warrnambool,AU,142.4833,-38.3833,48.81,92.0,94.0,10.49,1630188548.0
280,Flinders,AU,150.8552,-34.5833,53.06,91.0,13.0,3.0,1630188548.0
281,Nauta,PE,-73.5757,-4.5061,82.33,70.0,97.0,2.17,1630188549.0
282,Codrington,AU,141.9667,-38.2667,45.81,95.0,88.0,9.8,1630188549.0
283,Boffa,GN,-14.0333,10.1667,76.84,90.0,100.0,2.19,1630188549.0
285,Tessalit,ML,1.0114,20.1986,93.54,25.0,71.0,9.4,1630188550.0
286,Ola,RU,151.2833,59.5833,55.72,88.0,100.0,1.28,1630188550.0
287,Saint Anthony,US,-93.218,45.0205,83.55,68.0,75.0,0.0,1630188550.0
288,Cape Coast,GH,-1.2466,5.1053,76.1,90.0,73.0,9.44,1630188551.0
289,Bud,US,-86.1758,39.447,91.38,56.0,16.0,2.35,1630188551.0
290,Aklavik,CA,-135.0107,68.2191,54.3,65.0,46.0,3.24,1630188551.0
291,Hollola,FI,25.4333,61.05,53.73,91.0,95.0,5.57,1630188552.0
293,Imbituba,BR,-48.6703,-28.24,64.29,78.0,93.0,5.21,1630188552.0
294,Namwala,ZM,26.4384,-15.7504,73.29,28.0,28.0,4.36,1630188553.0
295,Tarauacá,BR,-70.7656,-8.1614,85.33,59.0,91.0,0.83,1630188553.0
296,Jalu,LY,21.5482,29.0331,91.58,23.0,0.0,6.2,1630188553.0
297,Colomi,BO,-65.8667,-17.35,62.62,76.0,91.0,7.96,1630188554.0
298,Ahipara,NZ,173.1667,-35.1667,59.85,83.0,58.0,8.88,1630188554.0
299,Quilmaná,PE,-76.3833,-12.95,68.59,67.0,34.0,4.94,1630188555.0
300,Kamień Pomorski,PL,14.7726,53.9685,61.5,93.0,100.0,8.34,1630188555.0
301,Pingxiang,CN,113.85,27.6167,74.43,92.0,85.0,2.95,1630188555.0
302,Kaabong,UG,34.1492,3.4836,68.85,69.0,81.0,2.98,1630188555.0
303,Gashua,NG,11.0482,12.871,84.07,61.0,60.0,14.76,1630188556.0
304,Deputatsky,RU,139.9,69.3,37.6,82.0,100.0,4.9,1630188556.0
305,Beloha,MG,45.05,-25.1667,67.87,56.0,0.0,9.06,1630188556.0
308,Griffith,US,-87.4237,41.5284,91.33,64.0,1.0,3.0,1630188557.0
309,‘Āhuimanu,US,-157.8378,21.4447,89.31,57.0,20.0,12.66,1630188557.0
310,Jumilla,ES,-1.325,38.4792,76.35,62.0,10.0,3.33,1630188557.0
311,Broken Hill,AU,141.4333,-31.95,47.44,68.0,34.0,9.37,1630188557.0
312,Lebyazh'ye,RU,66.4947,55.2689,51.39,69.0,100.0,12.21,1630188558.0
313,Ust-Kuyga,RU,135.6,70.0167,39.04,82.0,100.0,4.72,1630188558.0
314,Faya,SA,42.4509,18.3851,70.32,20.0,46.0,3.89,1630188558.0
315,Shalinskoye,RU,93.7594,55.7228,54.61,88.0,26.0,4.92,1630188559.0
316,Kālānwāli,IN,74.95,29.85,82.94,72.0,4.0,7.67,1630188559.0
318,Bonfim,BR,-59.95,3.0833,81.48,78.0,82.0,5.66,1630188559.0
319,Mehrān,IR,46.1646,33.1222,97.2,10.0,0.0,7.11,1630188559.0
320,Sept-Îles,CA,-66.3821,50.2001,63.05,68.0,83.0,7.0,1630188560.0
321,Brae,GB,-1.353,60.3964,53.51,87.0,14.0,3.76,1630188560.0
322,Alice Town,BS,-79.3,25.7167,83.73,76.0,100.0,11.65,1630188560.0
324,Āreka,ET,37.7,7.0667,61.63,88.0,90.0,0.6,1630188561.0
325,Golden,US,-105.2211,39.7555,95.5,28.0,40.0,1.01,1630188561.0
326,Longyearbyen,SJ,15.6401,78.2186,40.84,81.0,75.0,1.14,1630188561.0
327,Vardø,NO,31.1107,70.3705,45.68,75.0,100.0,15.03,1630188561.0
328,Grindavik,IS,-22.4338,63.8424,52.27,82.0,90.0,20.71,1630188562.0
329,Nouadhibou,MR,-17.0347,20.931,72.34,84.0,6.0,11.1,1630188562.0
330,Khani,GE,42.9566,41.9563,63.97,47.0,0.0,5.19,1630188562.0
332,Borazjan,IR,51.2159,29.2666,98.31,17.0,0.0,7.07,1630188563.0
333,Gharavŭtí,TJ,68.4469,37.5672,70.45,25.0,0.0,3.38,1630188563.0
334,Caucayá,CO,-74.7819,-0.1934,77.22,87.0,83.0,1.21,1630188563.0
335,Poum,NC,164.0167,-20.2333,72.7,77.0,1.0,5.95,1630188563.0
336,Sembakung,ID,117.25,3.8167,73.09,98.0,100.0,1.03,1630188564.0
338,Garoowe,SO,48.4845,8.4054,75.27,64.0,78.0,28.72,1630188564.0
339,Horlivka,UA,38.0542,48.347,72.66,49.0,2.0,4.94,1630188564.0
340,Broome,US,-75.833,42.2506,79.38,81.0,40.0,1.99,1630188565.0
341,Plouzané,FR,-4.6167,48.3833,59.09,88.0,0.0,6.91,1630188565.0
342,Andreapol',RU,32.2664,56.6513,55.11,92.0,98.0,9.22,1630188565.0
344,Almaznyy,RU,40.045,48.0448,69.94,47.0,0.0,6.64,1630188565.0
345,Praia da Vitória,PT,-27.0667,38.7333,73.76,91.0,11.0,9.95,1630188566.0
346,Nanortalik,GL,-45.2371,60.1432,43.34,72.0,63.0,6.51,1630188566.0
347,Husavik,IS,-17.3389,66.0449,52.16,81.0,92.0,1.19,1630188566.0
350,Kirundo Province,BI,30.1667,-2.5833,70.57,41.0,59.0,2.82,1630188567.0
351,Maningrida,AU,134.2667,-12.0667,69.57,45.0,92.0,9.17,1630188567.0
352,Bemidji,US,-94.8803,47.4736,75.63,81.0,75.0,8.05,1630188567.0
353,Lábrea,BR,-64.7981,-7.2586,90.91,39.0,74.0,4.29,1630188567.0
354,Taoudenni,ML,-3.9836,22.6783,102.02,17.0,29.0,12.88,1630188568.0
355,Upernavik,GL,-56.1549,72.7868,37.83,74.0,65.0,7.14,1630188568.0
356,Banjar,ID,114.9675,-8.19,78.66,90.0,32.0,4.47,1630188568.0
357,Helong,CN,128.9972,42.5397,62.22,82.0,100.0,5.7,1630188569.0
358,Vicuña,CL,-70.7081,-30.0319,78.76,21.0,0.0,3.65,1630188569.0
359,Comodoro Rivadavia,AR,-67.5,-45.8667,53.46,50.0,0.0,3.44,1630188569.0
360,Karpathos,GR,27.2132,35.507,78.78,72.0,0.0,8.57,1630188569.0
361,San Policarpo,PH,125.5072,12.1791,78.91,85.0,100.0,4.05,1630188570.0
362,Naze,JP,129.4833,28.3667,72.52,79.0,10.0,2.71,1630188328.0
363,Norman Wells,CA,-126.8329,65.282,60.44,72.0,74.0,9.4,1630188570.0
364,Bundaberg,AU,152.35,-24.85,66.49,94.0,40.0,5.75,1630188570.0
365,Ishigaki,JP,124.1572,24.3448,83.41,75.0,13.0,11.7,1630188571.0
367,Mattru,SL,-11.8332,7.6244,74.66,96.0,100.0,2.95,1630188571.0
368,Indramayu,ID,108.32,-6.3264,78.21,73.0,100.0,8.93,1630188571.0
369,Toamasina,MG,49.3833,-18.1667,69.71,89.0,44.0,5.61,1630188572.0
370,San Felipe,VE,-68.7425,10.3399,75.9,92.0,100.0,4.36,1630188572.0
371,Karratha,AU,116.8463,-20.7377,68.9,52.0,84.0,4.99,1630188572.0
372,Orán,AR,-64.326,-23.1322,75.42,34.0,0.0,3.11,1630188572.0
373,Lukovetskiy,RU,41.9211,64.2956,39.18,94.0,93.0,3.58,1630188573.0
374,Kalmunai,LK,81.8167,7.4167,80.06,67.0,87.0,2.93,1630188573.0
375,Iqaluit,CA,-68.5145,63.7506,41.11,82.0,100.0,2.17,1630188499.0
376,Saint George,US,-113.5841,37.1041,105.39,10.0,1.0,3.0,1630188385.0
377,Berdigestyakh,RU,126.6992,62.0989,42.06,78.0,43.0,4.76,1630188573.0
379,Celestún,MX,-90.4,20.8667,85.21,68.0,34.0,10.25,1630188574.0
380,Palestine,PS,35.2033,31.9216,71.02,90.0,0.0,5.41,1630188574.0
381,Sakaiminato,JP,133.2333,35.55,76.93,86.0,31.0,6.76,1630188574.0
382,Huarmey,PE,-78.1522,-10.0681,67.3,74.0,37.0,12.01,1630188575.0
384,Tolaga Bay,NZ,178.3,-38.3667,58.66,88.0,99.0,0.81,1630188575.0
385,Ýpsonas,CY,32.9574,34.6884,77.99,73.0,0.0,4.61,1630188575.0
386,Ulaangom,MN,92.0667,49.9811,55.11,68.0,2.0,2.3,1630188575.0
387,Vytegra,RU,36.4481,61.0064,49.37,85.0,8.0,4.27,1630188576.0
388,Wenatchee,US,-120.3103,47.4235,86.38,30.0,1.0,5.99,1630188507.0
389,Coron,PH,120.2043,11.9986,79.12,83.0,100.0,7.14,1630188576.0
390,Kaitangata,NZ,169.8464,-46.2817,45.88,83.0,100.0,4.97,1630188576.0
391,Klaksvík,FO,-6.589,62.2266,52.72,90.0,82.0,11.45,1630188577.0
392,Bourail,NC,165.4833,-21.5667,74.46,69.0,4.0,2.77,1630188577.0
393,Makat,KZ,53.3463,47.6469,78.35,38.0,82.0,7.09,1630188577.0
394,Caconda,AO,15.0667,-13.7333,65.44,33.0,4.0,2.84,1630188577.0
396,Kavaratti,IN,72.642,10.5669,78.37,87.0,100.0,15.95,1630188578.0
397,Khasan,RU,130.6434,42.4308,67.01,74.0,87.0,4.92,1630188578.0
398,Ponta Delgada,PT,-25.6667,37.7333,74.12,88.0,40.0,16.11,1630188578.0
400,Esna,EG,32.554,25.2934,90.36,15.0,0.0,12.82,1630188579.0
401,Sinnamary,GF,-52.95,5.3833,79.2,90.0,51.0,10.4,1630188579.0
402,Chara,RU,118.2631,56.9064,49.44,66.0,8.0,1.28,1630188579.0
403,Tinskoy,RU,96.9161,56.1525,59.41,77.0,92.0,2.84,1630188580.0
404,Valdez,EC,-78.9831,1.2492,79.03,80.0,97.0,8.34,1630188580.0
405,León,MX,-101.6667,21.1167,66.25,80.0,100.0,10.83,1630188454.0
406,Fukuechō,JP,128.8419,32.6881,79.48,82.0,13.0,4.63,1630188580.0
407,Valparaíso,CL,-71.6273,-33.0393,70.03,53.0,0.0,13.8,1630188580.0
408,Aykhal,RU,111.5,66.0,41.29,76.0,98.0,7.99,1630188581.0
409,Sola,VU,167.55,-13.8833,78.75,63.0,32.0,18.84,1630188581.0
411,Bauru,BR,-49.0606,-22.3147,69.21,59.0,100.0,12.59,1630188581.0
412,Shingū,JP,135.9833,33.7333,77.92,77.0,0.0,3.47,1630188582.0
413,Riyadh,SA,46.7219,24.6877,96.94,10.0,26.0,9.06,1630188582.0
414,Hāngal,IN,75.1333,14.7667,69.64,96.0,100.0,8.28,1630188582.0
415,Hamilton,US,-84.5333,39.1834,94.41,60.0,1.0,4.61,1630188398.0
416,Berovo,MK,22.8578,41.7031,63.27,72.0,10.0,2.8,1630188582.0
417,Le Port,RE,55.2919,-20.9373,69.8,86.0,81.0,7.72,1630188583.0
418,Road Town,VG,-64.6167,18.4167,84.29,78.0,100.0,18.19,1630188583.0
419,Homer,US,-151.5483,59.6425,58.08,48.0,1.0,6.91,1630188583.0
420,Medicine Hat,CA,-110.6683,50.0501,75.22,37.0,5.0,1.99,1630188571.0
422,Nicolás Bravo,MX,-88.9167,18.45,85.08,70.0,53.0,4.63,1630188584.0
423,Portland,US,-122.6762,45.5234,89.76,35.0,20.0,1.99,1630188416.0
424,Kabo,CF,18.629,7.6994,72.1,97.0,81.0,4.7,1630188584.0
425,Padang,ID,100.3543,-0.9492,76.26,87.0,56.0,3.44,1630188584.0
428,La Calera,AR,-64.3353,-31.3438,70.25,33.0,0.0,1.99,1630188585.0
429,Santa Marta,CO,-74.199,11.2408,88.99,67.0,90.0,8.01,1630188585.0
430,Fuerte Olimpo,PY,-57.8738,-21.0415,73.24,71.0,100.0,1.41,1630188585.0
431,Lubumbashi,CD,27.4794,-11.6609,70.11,28.0,27.0,2.13,1630188586.0
432,Cananéia,BR,-47.9267,-25.0147,63.64,96.0,100.0,5.82,1630188586.0
433,Alyangula,AU,136.4192,-13.8483,73.87,70.0,44.0,11.88,1630188586.0
434,Ossora,RU,163.0719,59.2353,57.45,89.0,100.0,4.09,1630188586.0
435,Saint-Joseph,RE,55.6167,-21.3667,68.38,91.0,100.0,15.01,1630188587.0
436,Voi,KE,38.563,-3.3945,67.84,81.0,27.0,9.73,1630188587.0
437,Victor Harbor,AU,138.6167,-35.5667,51.89,91.0,5.0,6.76,1630188587.0
438,Maxixe,MZ,35.3472,-23.8597,69.91,89.0,32.0,14.88,1630188588.0
439,Arenápolis,BR,-56.8461,-14.4503,90.18,26.0,32.0,4.65,1630188550.0
440,Clarence Town,AU,151.7833,-32.5833,54.81,54.0,0.0,2.8,1630188588.0
441,Honiara,SB,159.95,-9.4333,82.44,76.0,85.0,7.16,1630188588.0
442,Jizan,SA,42.6667,17.3333,92.82,54.0,48.0,3.36,1630188589.0
443,Harper,LR,-7.7169,4.375,76.75,83.0,91.0,10.71,1630188589.0
444,Inírida,CO,-67.9239,3.8653,77.14,93.0,80.0,4.25,1630188589.0
445,Buchanan,LR,-10.0467,5.8808,78.76,86.0,100.0,9.13,1630188319.0
446,Soyo,AO,12.3689,-6.1349,72.09,87.0,32.0,7.99,1630188589.0
447,Denia,ES,0.1057,38.8408,80.74,86.0,1.0,1.99,1630188590.0
448,Boende,CD,20.8667,-0.2167,72.61,90.0,92.0,2.08,1630188590.0
449,Ciudad del Carmen,MX,-91.8333,18.6333,84.74,70.0,80.0,9.82,1630188569.0
450,Española,US,-106.0806,35.9911,91.72,22.0,24.0,16.11,1630188342.0
451,Fairmont,US,-80.1426,39.4851,90.7,72.0,71.0,2.3,1630188475.0
452,Boden,SE,21.6886,65.8252,48.2,85.0,0.0,2.3,1630188583.0
453,Wakiso,UG,32.4594,0.4044,69.35,76.0,42.0,2.06,1630188590.0
455,San Fernando,PH,120.6898,15.0286,78.15,87.0,79.0,1.68,1630188591.0
456,Tazovsky,RU,78.7,67.4667,44.02,94.0,100.0,13.2,1630188591.0
457,Los Llanos de Aridane,ES,-17.9182,28.6585,71.35,81.0,0.0,11.5,1630188591.0
458,Nālūt,LY,10.85,30.3333,89.01,22.0,34.0,10.74,1630188592.0
459,Malaya Vishera,RU,32.2222,58.8454,57.07,77.0,92.0,6.73,1630188592.0
460,Kirakira,SB,161.9205,-10.4544,82.08,68.0,50.0,11.54,1630188592.0
461,Cabedelo,BR,-34.8339,-6.9811,77.67,84.0,99.0,14.72,1630188592.0
462,Salalah,OM,54.0924,17.0151,78.89,94.0,90.0,5.75,1630188593.0
463,Ambanja,MG,48.45,-13.6833,69.51,83.0,37.0,3.15,1630188593.0
464,Taganak,PH,118.3,6.0833,80.8,80.0,99.0,11.1,1630188593.0
465,Sawtell,AU,153.1,-30.3833,53.62,76.0,0.0,5.75,1630188594.0
466,Oussouye,SN,-16.5469,12.485,79.34,81.0,100.0,4.68,1630188594.0
467,Caravelas,BR,-39.2481,-17.7125,71.06,86.0,7.0,7.07,1630188594.0
468,Pareora,NZ,171.2132,-44.4871,49.03,84.0,100.0,6.42,1630188595.0
469,Dolores,AR,-57.6792,-36.3132,52.65,76.0,32.0,7.7,1630188595.0
470,Asifābād,IN,79.2833,19.3667,77.85,83.0,100.0,3.27,1630188595.0
471,Margate,GB,1.3862,51.3813,60.69,79.0,15.0,3.0,1630188595.0
472,Chistogorskiy,RU,87.3843,53.9835,55.27,87.0,67.0,3.11,1630188596.0
473,Anloga,GH,0.8973,5.7947,77.22,88.0,96.0,12.15,1630188596.0
474,Thanh Hoa,VN,105.7667,19.8,75.0,93.0,61.0,3.83,1630188596.0
475,Lima,PE,-77.0282,-12.0432,62.13,77.0,40.0,10.36,1630188506.0
476,Simao,CN,100.9748,22.7886,62.44,96.0,100.0,1.7,1630188597.0
477,Kaeo,NZ,173.7833,-35.1,61.32,91.0,58.0,8.61,1630188597.0
478,Sokoni,TZ,39.55,-6.4333,75.4,77.0,4.0,13.33,1630188597.0
479,Esmeraldas,BR,-44.3139,-19.7625,72.46,47.0,66.0,9.53,1630188597.0
481,Tocopilla,CL,-70.1979,-22.092,64.94,68.0,17.0,12.03,1630188598.0
482,Spring Valley,US,-115.245,36.108,109.29,13.0,20.0,1.99,1630188598.0
483,Qiongshan,CN,110.3542,20.0058,79.75,85.0,5.0,6.06,1630188598.0
484,Kiryat Gat,IL,34.7642,31.61,79.48,77.0,0.0,4.18,1630188599.0
485,Mayumba,GA,10.6554,-3.432,74.21,90.0,100.0,8.1,1630188599.0
486,Acaraú,BR,-40.12,-2.8856,78.84,74.0,65.0,18.28,1630188599.0
487,Muskogee,US,-95.3336,35.5834,91.94,60.0,90.0,8.05,1630188599.0
488,Yangi Marg`ilon,UZ,71.7189,40.4272,77.72,25.0,4.0,4.61,1630188600.0
489,Alta Floresta,BR,-56.0861,-9.8756,87.66,30.0,16.0,5.12,1630188600.0
490,El Salvador,SV,-88.9167,13.8333,80.64,84.0,81.0,4.07,1630188600.0
491,Rawson,AR,-65.1023,-43.3002,55.89,41.0,78.0,9.46,1630188600.0
493,Ochtrup,DE,7.1833,52.2167,60.51,86.0,75.0,10.04,1630188601.0
494,Marsá Maţrūḩ,EG,27.2453,31.3525,79.3,73.0,0.0,2.86,1630188601.0
495,Narsaq,GL,-46.05,60.9167,48.42,57.0,51.0,2.37,1630188602.0
496,Severobaykal'sk,RU,109.3167,55.65,50.56,75.0,99.0,3.83,1630188602.0
497,Sakakah,SA,40.2064,29.9697,93.87,12.0,16.0,6.73,1630188605.0
498,Lata,PT,-8.3327,40.1629,65.91,95.0,38.0,2.04,1630188606.0
499,Bac Lieu,VN,105.7244,9.285,78.73,85.0,99.0,3.38,1630188606.0
500,Puri,IN,85.85,19.8,81.12,84.0,100.0,1.23,1630188606.0
501,Manokwari,ID,134.0833,-0.8667,77.92,75.0,71.0,2.93,1630188607.0
502,Evensk,RU,159.2333,61.95,53.83,89.0,100.0,1.57,1630188607.0
503,Marsh Harbour,BS,-77.0636,26.5412,83.59,74.0,100.0,10.87,1630188607.0
504,Minna,NG,6.5569,9.6139,73.62,95.0,100.0,1.57,1630188608.0
505,Marabu,MY,114.0089,4.4148,74.55,93.0,100.0,3.74,1630188608.0
506,Guozhen,CN,107.359,34.3659,62.98,89.0,89.0,3.15,1630188608.0
507,Böhönye,HU,17.3804,46.4134,56.3,87.0,100.0,2.62,1630188608.0
508,Najrān,SA,44.1277,17.4924,81.14,14.0,100.0,3.33,1630188609.0
509,Mahibadhoo,MV,72.9667,3.7833,81.93,77.0,95.0,18.43,1630188609.0
510,Mount Isa,AU,139.5,-20.7333,71.29,14.0,0.0,3.78,1630188609.0
511,Hobyo,SO,48.5268,5.3505,76.78,84.0,34.0,28.45,1630188610.0
512,Wewak,PG,143.6268,-3.5534,78.6,87.0,79.0,5.7,1630188610.0
513,Tigil',RU,158.6667,57.8,62.6,73.0,12.0,4.23,1630188610.0
514,Graham,US,-122.2943,47.0529,80.28,48.0,1.0,1.01,1630188610.0
515,La Ronge,CA,-105.2842,55.1001,59.95,79.0,100.0,3.22,1630188611.0
516,Ballina,AU,153.5667,-28.8667,53.78,52.0,0.0,5.84,1630188611.0
517,Cuzăplac,RO,23.2,46.9667,57.51,82.0,100.0,1.66,1630188611.0
518,Ono,JP,134.9333,34.85,80.06,84.0,9.0,2.55,1630188611.0
519,Carutapera,BR,-46.02,-1.195,78.82,79.0,100.0,8.95,1630188612.0
520,Padilla,CO,-76.3139,3.2204,83.89,72.0,88.0,1.66,1630188612.0
521,Newport,GB,-2.9984,51.5877,60.85,83.0,7.0,4.43,1630188359.0
522,Shimoda,JP,138.95,34.6667,84.16,77.0,0.0,8.52,1630188612.0
523,Waitati,NZ,170.5667,-45.75,48.79,83.0,91.0,5.46,1630188613.0
524,Roanoke Rapids,US,-77.6542,36.4615,98.2,79.0,1.0,0.0,1630188613.0
525,Pingshan,CN,114.7131,22.9938,76.8,82.0,93.0,3.36,1630188613.0
526,The Valley,AI,-63.0578,18.217,85.86,79.0,20.0,12.66,1630188614.0
527,Rosetta,EG,30.4164,31.4044,79.79,78.0,0.0,8.75,1630188614.0
528,Dudinka,RU,86.1778,69.4058,40.01,95.0,100.0,13.51,1630188614.0
529,Dingle,PH,122.6711,10.9995,75.34,92.0,74.0,2.77,1630188614.0
530,Seoul,KR,126.9778,37.5683,70.99,90.0,100.0,1.12,1630188484.0
531,Ibotirama,BR,-43.2206,-12.1853,83.64,29.0,56.0,3.65,1630188615.0
532,College,US,-147.8028,64.8569,48.15,74.0,75.0,10.36,1630188615.0
533,Butte,US,-121.5677,39.6499,103.41,20.0,1.0,3.44,1630188615.0
534,Ugoofaaru,MV,73.0,5.6667,81.52,78.0,100.0,17.07,1630188616.0
535,Quatre Cocos,MU,57.7625,-20.2078,72.09,91.0,100.0,14.29,1630188616.0
536,Oistins,BB,-59.5333,13.0667,81.01,81.0,72.0,18.16,1630188616.0
537,Bernalillo,US,-106.6673,35.05,94.91,25.0,40.0,8.05,1630188616.0
538,Gao,ML,1.637,16.6362,94.64,35.0,38.0,7.38,1630188617.0
539,Sehithwa,BW,22.7167,-20.4667,52.66,12.0,0.0,11.25,1630188617.0
540,Shirokiy,RU,129.523,49.758,46.65,86.0,2.0,2.17,1630188617.0
541,Novoagansk,RU,76.6625,61.9449,41.14,75.0,73.0,6.15,1630188617.0
542,Nome,US,-165.4064,64.5011,49.15,93.0,90.0,14.97,1630188618.0
543,Sayyan,YE,44.3244,15.1718,69.13,25.0,93.0,8.34,1630188618.0
544,Opuwo,NA,13.84,-18.0607,66.87,20.0,0.0,7.05,1630188618.0
545,Assiniboia,CA,-105.9845,49.6334,67.33,45.0,62.0,9.28,1630188619.0
546,Beringovskiy,RU,179.3167,63.05,52.57,85.0,99.0,2.68,1630188619.0
547,Nizhnyaya Tura,RU,59.8118,58.6293,40.46,79.0,22.0,3.78,1630188619.0
548,Ayr,GB,-4.6339,55.4627,60.49,94.0,20.0,2.3,1630188620.0
549,Tabou,CI,-7.3528,4.423,76.48,85.0,98.0,9.64,1630188621.0
550,Doische,BE,4.7355,50.1336,57.22,88.0,75.0,6.91,1630188621.0
551,Buñol,ES,-0.7833,39.4167,76.8,85.0,16.0,1.61,1630188622.0
552,Tulagi,SB,160.1476,-9.0996,81.97,75.0,98.0,24.58,1630188622.0
553,Diffa,NE,12.6113,13.3154,83.34,63.0,51.0,13.02,1630188622.0
554,Lázaro Cárdenas,MX,-102.2,17.9583,77.14,93.0,100.0,12.19,1630188622.0
555,Kerman,IR,57.0788,30.2832,71.92,21.0,0.0,10.51,1630188623.0
556,Nānākuli,US,-158.1547,21.3906,89.55,47.0,20.0,8.05,1630188623.0
557,Palāsa,IN,84.4167,18.7667,79.2,86.0,100.0,2.66,1630188498.0
558,Ust'-Ishim,RU,71.1665,57.6935,48.69,67.0,100.0,5.44,1630188623.0
559,Muravlenko,RU,74.523,63.7898,46.54,80.0,100.0,11.27,1630188624.0
560,Río Gallegos,AR,-69.2181,-51.6226,46.45,61.0,0.0,14.97,1630188624.0
561,Tiguha,PH,123.2114,7.7044,73.06,93.0,86.0,2.19,1630188624.0
562,Bowen,AU,148.2333,-20.0167,71.51,78.0,95.0,6.06,1630188624.0
563,Kyren,RU,102.1408,51.6828,53.4,70.0,87.0,3.04,1630188625.0
564,Brekstad,NO,9.6654,63.687,55.67,93.0,0.0,0.0,1630188625.0
565,Bassum,DE,8.7333,52.85,59.05,94.0,100.0,8.66,1630188625.0
566,Hurghada,EG,33.8129,27.2574,89.73,36.0,0.0,14.12,1630188625.0
567,Tugolesskiy Bor,RU,39.8242,55.5505,52.34,63.0,38.0,5.97,1630188626.0
568,Vestmannaeyjar,IS,-20.2734,63.4427,53.1,84.0,100.0,12.77,1630188626.0
569,Richards Bay,ZA,32.0377,-28.783,55.17,74.0,100.0,13.15,1630188626.0
570,São José da Coroa Grande,BR,-35.1478,-8.8978,74.86,82.0,40.0,8.25,1630188627.0
571,Flin Flon,CA,-101.865,54.7682,60.64,88.0,75.0,6.91,1630188627.0
572,Assiut,EG,31.1837,27.181,87.12,21.0,0.0,11.25,1630188627.0
573,Muzhi,RU,64.6667,65.3667,43.72,87.0,91.0,6.98,1630188628.0
574,Lüderitz,NA,15.1594,-26.6481,57.34,34.0,0.0,13.96,1630188628.0
575,Tomatlán,MX,-105.25,19.9333,74.75,98.0,100.0,26.84,1630188628.0
576,Olinda,BR,-34.8553,-8.0089,76.73,73.0,75.0,11.5,1630188628.0
577,Miquelon,PM,-56.3814,47.0975,60.8,68.0,93.0,27.11,1630188629.0
578,Santa Isabel,BR,-46.2214,-23.3156,63.41,97.0,100.0,3.53,1630188629.0
579,Torbat-e Jām,IR,60.6225,35.244,73.53,24.0,0.0,12.66,1630188629.0
580,Kidal,ML,1.4078,18.4411,94.96,25.0,76.0,8.05,1630188630.0
581,Brandon,US,-82.2859,27.9378,90.61,71.0,1.0,1.99,1630188630.0
582,Arrondissement de Cahors,FR,1.3333,44.4167,62.1,64.0,0.0,7.67,1630188630.0
583,Ati,TD,18.3353,13.2154,86.09,61.0,100.0,9.19,1630188631.0
584,Baruun-Urt,MN,113.2792,46.6806,50.22,83.0,36.0,6.13,1630188631.0
585,Along,IN,94.7667,28.1667,71.53,99.0,100.0,0.81,1630188631.0
586,Bajil,YE,43.2851,15.0584,92.16,48.0,46.0,4.18,1630188631.0
587,Lichinga,MZ,35.2406,-13.3128,63.1,46.0,0.0,4.9,1630188632.0
588,Kalemie,CD,29.1947,-5.9475,74.91,44.0,16.0,4.03,1630188362.0
589,Sittwe,MM,92.9,20.15,79.48,88.0,92.0,9.73,1630188632.0
590,Bollnäs,SE,16.3946,61.3482,49.39,77.0,83.0,4.12,1630188632.0
591,Praia,CV,-23.5087,14.9215,77.54,83.0,20.0,4.61,1630188633.0
593,Viedma,AR,-62.9967,-40.8135,53.74,40.0,100.0,3.56,1630188625.0
594,Assens,DK,9.9008,55.2702,58.32,93.0,100.0,15.84,1630188633.0
595,Kimbe,PG,150.1429,-5.5502,79.54,82.0,28.0,3.85,1630188633.0
597,Abu Kamal,SY,40.9171,34.4506,93.4,14.0,0.0,9.62,1630188634.0
598,Buala,SB,159.5921,-8.145,82.13,77.0,100.0,9.31,1630188634.0
599,Zhoucheng,CN,116.3117,35.9122,65.05,98.0,100.0,5.19,1630188634.0
600,Binga,ZW,27.3414,-17.6203,72.3,32.0,1.0,8.77,1630188634.0
601,Surovikino,RU,42.8486,48.6078,72.27,35.0,1.0,11.3,1630188635.0
602,Orašac,BA,16.0711,44.6289,51.67,99.0,99.0,3.91,1630188635.0
603,Normandin,CA,-72.5321,48.8333,65.01,55.0,100.0,4.56,1630188635.0
604,Andenes,NO,16.1194,69.3143,49.98,93.0,90.0,5.75,1630188635.0
605,Majene,ID,118.9707,-3.5403,76.01,91.0,100.0,3.62,1630188438.0
606,Pochutla,MX,-96.4661,15.7432,83.82,72.0,100.0,6.78,1630188636.0
607,Kamskiye Polyany,RU,51.4171,55.4307,49.01,66.0,2.0,5.66,1630188636.0
608,Baracoa,CU,-74.4958,20.3467,83.62,75.0,95.0,5.48,1630188636.0
609,Whitehorse,CA,-135.0538,60.7161,50.02,94.0,100.0,2.13,1630188637.0
610,Platteville,US,-90.4785,42.7342,93.47,62.0,40.0,12.66,1630188637.0
611,Nizhniy Kuranakh,RU,125.4869,58.8353,40.87,77.0,3.0,1.32,1630188637.0
612,Dromolaxia,CY,33.586,34.8761,78.67,81.0,0.0,0.0,1630188638.0
